[{"id":1,"name":"Bosco, Murphy and Wolff","location":{"state":"Ohio","city":"Cleveland","lat":"41.3826","lon":"-81.7964"},"date_updated":"2018-11-17T18:54:51Z"},
{"id":2,"name":"Rosenbaum-Boehm","location":{"state":"Utah","city":"Salt Lake City","lat":"40.695","lon":"-112.0001"},"date_updated":"2018-04-11T15:13:37Z"},
{"id":3,"name":"Schimmel Group","location":{"state":"Florida","city":"Orlando","lat":"28.5663","lon":"-81.2608"},"date_updated":"2018-07-20T03:21:40Z"},
{"id":4,"name":"Quigley, Prohaska and Stroman","location":{"state":"Minnesota","city":"Saint Paul","lat":"44.9427","lon":"-93.0828"},"date_updated":"2018-11-10T01:12:35Z"},
{"id":5,"name":"Lang, Zboncak and Kuhn","location":{"state":"Kentucky","city":"Louisville","lat":"38.189","lon":"-85.6768"},"date_updated":"2018-04-29T08:23:55Z"},
{"id":6,"name":"Bernier Group","location":{"state":"Pennsylvania","city":"Pittsburgh","lat":"40.4344","lon":"-80.0248"},"date_updated":"2018-11-12T10:30:29Z"},
{"id":7,"name":"Crona, Skiles and Stracke","location":{"state":"Pennsylvania","city":"Valley Forge","lat":"39.9832","lon":"-75.7481"},"date_updated":"2018-10-09T23:01:18Z"},
{"id":8,"name":"Hammes and Sons","location":{"state":"California","city":"North Hollywood","lat":"34.1872","lon":"-118.3865"},"date_updated":"2018-06-24T05:22:04Z"},
{"id":9,"name":"Welch LLC","location":{"state":"California","city":"San Jose","lat":"37.2568","lon":"-121.8896"},"date_updated":"2019-03-07T13:01:38Z"},
{"id":10,"name":"Wisozk, McCullough and Kemmer","location":{"state":"Missouri","city":"Independence","lat":"39.11","lon":"-94.4401"},"date_updated":"2018-11-02T17:15:02Z"},
{"id":11,"name":"Durgan, Turcotte and Schuster","location":{"state":"Alabama","city":"Montgomery","lat":"32.373","lon":"-86.3081"},"date_updated":"2018-05-07T02:49:18Z"},
{"id":12,"name":"Turcotte-Wyman","location":{"state":"Florida","city":"Orlando","lat":"28.5803","lon":"-81.4396"},"date_updated":"2019-03-11T00:43:10Z"},
{"id":13,"name":"O'Hara LLC","location":{"state":"Colorado","city":"Denver","lat":"39.7388","lon":"-104.4083"},"date_updated":"2019-03-08T15:57:30Z"},
{"id":14,"name":"Altenwerth-Wiza","location":{"state":"Connecticut","city":"Stamford","lat":"41.3089","lon":"-73.3637"},"date_updated":"2019-01-14T06:18:42Z"},
{"id":15,"name":"Renner-Rath","location":{"state":"Florida","city":"Tampa","lat":"28.06","lon":"-82.4079"},"date_updated":"2018-09-28T05:00:29Z"},
{"id":16,"name":"Schuster-Huel","location":{"state":"California","city":"Sacramento","lat":"38.3774","lon":"-121.4444"},"date_updated":"2018-06-13T15:23:48Z"},
{"id":17,"name":"Gleichner Group","location":{"state":"California","city":"Sacramento","lat":"38.3774","lon":"-121.4444"},"date_updated":"2018-03-14T19:05:07Z"},
{"id":18,"name":"Turner, Gorczany and Moen","location":{"state":"Michigan","city":"Ann Arbor","lat":"42.2535","lon":"-83.8366"},"date_updated":"2018-05-09T11:57:41Z"},
{"id":19,"name":"Greenholt-Zboncak","location":{"state":"Texas","city":"Fort Worth","lat":"32.7714","lon":"-97.2915"},"date_updated":"2018-07-30T07:23:24Z"},
{"id":20,"name":"Yost, Lynch and Nolan","location":{"state":"Louisiana","city":"Shreveport","lat":"32.6076","lon":"-93.7526"},"date_updated":"2018-10-02T18:31:22Z"},
{"id":21,"name":"Pollich LLC","location":{"state":"Florida","city":"Port Charlotte","lat":"27.0228","lon":"-82.1108"},"date_updated":"2018-08-11T11:21:18Z"},
{"id":22,"name":"Heathcote-Simonis","location":{"state":"Indiana","city":"Indianapolis","lat":"39.7673","lon":"-86.1606"},"date_updated":"2018-07-28T01:38:17Z"},
{"id":23,"name":"Abshire, Christiansen and Gleason","location":{"state":"California","city":"Richmond","lat":"37.7772","lon":"-121.9554"},"date_updated":"2019-01-10T14:52:55Z"},
{"id":24,"name":"Romaguera, Beer and Dare","location":{"state":"Colorado","city":"Colorado Springs","lat":"38.9497","lon":"-104.767"},"date_updated":"2018-12-30T05:51:02Z"},
{"id":25,"name":"Steuber-Langosh","location":{"state":"Nevada","city":"Henderson","lat":"36.0384","lon":"-115.0857"},"date_updated":"2019-02-24T02:36:27Z"},
{"id":26,"name":"Bashirian-Leannon","location":{"state":"California","city":"Sacramento","lat":"38.3774","lon":"-121.4444"},"date_updated":"2018-09-22T17:32:27Z"},
{"id":27,"name":"Stoltenberg, Lakin and Ryan","location":{"state":"Texas","city":"Waco","lat":"31.5175","lon":"-97.1547"},"date_updated":"2018-04-21T07:01:22Z"},
{"id":28,"name":"Sanford-Roberts","location":{"state":"Colorado","city":"Boulder","lat":"40.0878","lon":"-105.3735"},"date_updated":"2018-12-12T02:48:47Z"},
{"id":29,"name":"Bauch Inc","location":{"state":"New Mexico","city":"Albuquerque","lat":"35.0443","lon":"-106.6729"},"date_updated":"2018-03-25T09:09:45Z"},
{"id":30,"name":"Schmidt-Hane","location":{"state":"Nebraska","city":"Lincoln","lat":"40.8063","lon":"-96.6545"},"date_updated":"2018-07-14T09:59:11Z"},
{"id":31,"name":"Schowalter and Sons","location":{"state":"Ohio","city":"Cincinnati","lat":"39.0706","lon":"-84.4179"},"date_updated":"2018-11-30T05:19:07Z"},
{"id":32,"name":"Berge-Ziemann","location":{"state":"Oregon","city":"Portland","lat":"45.5806","lon":"-122.3748"},"date_updated":"2018-08-28T13:49:42Z"},
{"id":33,"name":"Ortiz, Stiedemann and Cremin","location":{"state":"Massachusetts","city":"Boston","lat":"42.3615","lon":"-71.0604"},"date_updated":"2018-11-19T21:59:19Z"},
{"id":34,"name":"Robel-Walsh","location":{"state":"Washington","city":"Seattle","lat":"47.6849","lon":"-122.2968"},"date_updated":"2018-05-06T18:48:02Z"},
{"id":35,"name":"Douglas Group","location":{"state":"Florida","city":"Fort Lauderdale","lat":"26.1457","lon":"-80.4483"},"date_updated":"2019-02-20T17:04:33Z"},
{"id":36,"name":"Tromp-Denesik","location":{"state":"Washington","city":"Vancouver","lat":"45.6231","lon":"-122.5767"},"date_updated":"2018-07-18T10:55:57Z"},
{"id":37,"name":"Bogisich-Luettgen","location":{"state":"Illinois","city":"Chicago","lat":"41.8119","lon":"-87.6873"},"date_updated":"2018-10-18T07:47:19Z"},
{"id":38,"name":"Kshlerin, Abernathy and Dooley","location":{"state":"Missouri","city":"Kansas City","lat":"39.2627","lon":"-94.697"},"date_updated":"2018-12-21T15:56:00Z"},
{"id":39,"name":"Reichert-Green","location":{"state":"Ohio","city":"Cleveland","lat":"41.6857","lon":"-81.6728"},"date_updated":"2019-01-25T14:10:03Z"},
{"id":40,"name":"Haag, O'Reilly and Franecki","location":{"state":"California","city":"Northridge","lat":"33.7866","lon":"-118.2987"},"date_updated":"2019-01-04T11:33:28Z"},
{"id":41,"name":"Friesen, Ebert and Roberts","location":{"state":"Montana","city":"Bozeman","lat":"45.7246","lon":"-111.1238"},"date_updated":"2018-05-09T20:39:27Z"},
{"id":42,"name":"Schamberger, Bauch and Rolfson","location":{"state":"West Virginia","city":"Charleston","lat":"38.2968","lon":"-81.5547"},"date_updated":"2018-05-21T16:01:20Z"},
{"id":43,"name":"Ledner-Aufderhar","location":{"state":"California","city":"Chico","lat":"39.8032","lon":"-121.8673"},"date_updated":"2018-12-08T08:27:36Z"},
{"id":44,"name":"Lind, Daniel and Wiegand","location":{"state":"California","city":"Van Nuys","lat":"34.1781","lon":"-118.4574"},"date_updated":"2018-10-09T10:50:23Z"},
{"id":45,"name":"Parker, Bahringer and Towne","location":{"state":"Florida","city":"Melbourne","lat":"28.3067","lon":"-80.6862"},"date_updated":"2018-09-03T13:37:35Z"},
{"id":46,"name":"O'Connell, Hagenes and Moen","location":{"state":"Georgia","city":"Atlanta","lat":"33.7629","lon":"-84.4226"},"date_updated":"2019-02-19T23:33:40Z"},
{"id":47,"name":"Schaden and Sons","location":{"state":"New Mexico","city":"Albuquerque","lat":"35.0443","lon":"-106.6729"},"date_updated":"2018-09-01T17:53:23Z"},
{"id":48,"name":"Lynch, Pagac and Lang","location":{"state":"West Virginia","city":"Charleston","lat":"38.4142","lon":"-81.7582"},"date_updated":"2019-02-01T01:43:17Z"},
{"id":49,"name":"Christiansen-Rohan","location":{"state":"Georgia","city":"Decatur","lat":"33.7749","lon":"-84.3046"},"date_updated":"2018-10-06T19:30:21Z"},
{"id":50,"name":"Batz-Olson","location":{"state":"California","city":"Sacramento","lat":"38.5568","lon":"-121.4929"},"date_updated":"2019-01-10T05:55:30Z"},
{"id":51,"name":"Kuvalis-Zemlak","location":{"state":"Colorado","city":"Colorado Springs","lat":"38.8289","lon":"-104.5269"},"date_updated":"2018-05-19T14:34:07Z"},
{"id":52,"name":"Pfannerstill-Kassulke","location":{"state":"New York","city":"Brooklyn","lat":"40.6412","lon":"-74.0133"},"date_updated":"2018-07-29T21:19:50Z"},
{"id":53,"name":"Walker, Conn and Hagenes","location":{"state":"Texas","city":"Waco","lat":"31.5915","lon":"-97.0823"},"date_updated":"2018-07-25T06:54:29Z"},
{"id":54,"name":"Morar-Jerde","location":{"state":"Alabama","city":"Birmingham","lat":"33.3538","lon":"-86.8254"},"date_updated":"2018-05-18T13:53:45Z"},
{"id":55,"name":"Lockman Inc","location":{"state":"California","city":"San Francisco","lat":"37.7864","lon":"-122.3892"},"date_updated":"2019-02-21T22:50:41Z"},
{"id":56,"name":"Hayes, Price and D'Amore","location":{"state":"Virginia","city":"Roanoke","lat":"37.3589","lon":"-79.9448"},"date_updated":"2018-12-28T13:32:04Z"},
{"id":57,"name":"Cormier-Erdman","location":{"state":"Texas","city":"Houston","lat":"29.834","lon":"-95.4342"},"date_updated":"2018-09-03T16:36:46Z"},
{"id":58,"name":"Friesen Inc","location":{"state":"Wisconsin","city":"Green Bay","lat":"44.5463","lon":"-88.1021"},"date_updated":"2018-06-01T16:11:43Z"},
{"id":59,"name":"West Group","location":{"state":"North Carolina","city":"Fayetteville","lat":"35.0583","lon":"-79.008"},"date_updated":"2018-11-11T19:45:26Z"},
{"id":60,"name":"Armstrong LLC","location":{"state":"Texas","city":"Austin","lat":"30.1876","lon":"-97.7472"},"date_updated":"2018-10-05T12:03:00Z"},
{"id":61,"name":"Kertzmann-Osinski","location":{"state":"New York","city":"New York City","lat":"40.7808","lon":"-73.9772"},"date_updated":"2018-07-20T01:25:54Z"},
{"id":62,"name":"Franecki, Buckridge and Abshire","location":{"state":"Tennessee","city":"Knoxville","lat":"35.9918","lon":"-83.8496"},"date_updated":"2018-04-21T13:39:45Z"},
{"id":63,"name":"Senger-Jenkins","location":{"state":"California","city":"Fresno","lat":"36.7464","lon":"-119.6397"},"date_updated":"2019-01-29T04:26:42Z"},
{"id":64,"name":"Kovacek-Marvin","location":{"state":"California","city":"Petaluma","lat":"38.4631","lon":"-122.99"},"date_updated":"2018-04-13T11:37:07Z"},
{"id":65,"name":"Buckridge LLC","location":{"state":"Texas","city":"Fort Worth","lat":"32.7714","lon":"-97.2915"},"date_updated":"2018-10-26T08:43:15Z"},
{"id":66,"name":"Hodkiewicz, Berge and Goldner","location":{"state":"Alabama","city":"Birmingham","lat":"33.4951","lon":"-86.8059"},"date_updated":"2018-06-04T14:04:00Z"},
{"id":67,"name":"Moen-Beier","location":{"state":"Nebraska","city":"Omaha","lat":"41.2949","lon":"-96.0546"},"date_updated":"2018-09-30T06:16:37Z"},
{"id":68,"name":"Schowalter, Upton and Hilll","location":{"state":"Texas","city":"El Paso","lat":"31.6948","lon":"-106.3"},"date_updated":"2018-11-09T16:08:33Z"},
{"id":69,"name":"Adams-Kuphal","location":{"state":"Virginia","city":"Norfolk","lat":"36.9312","lon":"-76.2397"},"date_updated":"2018-04-06T11:16:28Z"},
{"id":70,"name":"Daugherty-Paucek","location":{"state":"Georgia","city":"Cumming","lat":"34.2216","lon":"-84.1537"},"date_updated":"2018-07-17T09:04:27Z"},
{"id":71,"name":"Gislason Inc","location":{"state":"California","city":"Torrance","lat":"33.7866","lon":"-118.2987"},"date_updated":"2019-02-11T21:41:35Z"},
{"id":72,"name":"Daugherty Inc","location":{"state":"District of Columbia","city":"Washington","lat":"38.8933","lon":"-77.0146"},"date_updated":"2019-02-17T09:46:39Z"},
{"id":73,"name":"Runte-Oberbrunner","location":{"state":"Virginia","city":"Sterling","lat":"39.0853","lon":"-77.6452"},"date_updated":"2018-12-08T08:22:33Z"},
{"id":74,"name":"Rempel Inc","location":{"state":"Texas","city":"Dallas","lat":"32.7673","lon":"-96.7776"},"date_updated":"2018-08-17T03:13:35Z"},
{"id":75,"name":"Wunsch-Cronin","location":{"state":"North Carolina","city":"Charlotte","lat":"35.26","lon":"-80.8042"},"date_updated":"2018-08-31T05:40:18Z"},
{"id":76,"name":"Olson, Schiller and Orn","location":{"state":"Arizona","city":"Phoenix","lat":"33.5082","lon":"-112.1011"},"date_updated":"2018-05-03T13:49:58Z"},
{"id":77,"name":"Schuppe Group","location":{"state":"Colorado","city":"Colorado Springs","lat":"38.8152","lon":"-104.7703"},"date_updated":"2019-02-28T06:15:30Z"},
{"id":78,"name":"Brown-Lakin","location":{"state":"Pennsylvania","city":"Pittsburgh","lat":"40.4181","lon":"-80.0526"},"date_updated":"2019-01-19T03:05:26Z"},
{"id":79,"name":"Blick, Strosin and Hagenes","location":{"state":"New Jersey","city":"Elizabeth","lat":"40.6747","lon":"-74.2239"},"date_updated":"2019-01-19T17:36:33Z"},
{"id":80,"name":"Bayer-Armstrong","location":{"state":"Florida","city":"Jacksonville","lat":"30.2407","lon":"-81.893"},"date_updated":"2019-02-04T14:34:18Z"},
{"id":81,"name":"Strosin Inc","location":{"state":"California","city":"North Hollywood","lat":"33.7866","lon":"-118.2987"},"date_updated":"2019-03-01T16:51:12Z"},
{"id":82,"name":"Gorczany and Sons","location":{"state":"Texas","city":"Fort Worth","lat":"32.7714","lon":"-97.2915"},"date_updated":"2018-04-13T05:54:19Z"},
{"id":83,"name":"Kulas-Wiza","location":{"state":"Texas","city":"Fort Worth","lat":"32.7714","lon":"-97.2915"},"date_updated":"2018-08-26T20:17:21Z"},
{"id":84,"name":"Baumbach and Sons","location":{"state":"Washington","city":"Vancouver","lat":"45.6644","lon":"-122.5212"},"date_updated":"2018-07-13T06:51:47Z"},
{"id":85,"name":"Stamm-Ryan","location":{"state":"Missouri","city":"Saint Joseph","lat":"39.7076","lon":"-94.8677"},"date_updated":"2018-07-08T00:17:24Z"},
{"id":86,"name":"Koepp LLC","location":{"state":"Minnesota","city":"Minneapolis","lat":"44.8756","lon":"-93.2553"},"date_updated":"2018-08-21T00:51:01Z"},
{"id":87,"name":"O'Conner-Schoen","location":{"state":"Maine","city":"Portland","lat":"43.6783","lon":"-70.1987"},"date_updated":"2019-01-08T03:01:23Z"},
{"id":88,"name":"Lehner Inc","location":{"state":"Georgia","city":"Atlanta","lat":"33.8444","lon":"-84.474"},"date_updated":"2018-06-19T03:30:16Z"},
{"id":89,"name":"Kiehn, Dibbert and D'Amore","location":{"state":"Iowa","city":"Des Moines","lat":"41.5487","lon":"-93.5827"},"date_updated":"2018-03-14T08:01:23Z"},
{"id":90,"name":"Ferry-White","location":{"state":"Maryland","city":"Baltimore","lat":"39.2847","lon":"-76.6205"},"date_updated":"2018-04-25T00:23:41Z"},
{"id":91,"name":"Waelchi-Auer","location":{"state":"Florida","city":"Miami","lat":"25.6615","lon":"-80.441"},"date_updated":"2018-11-01T06:48:55Z"},
{"id":92,"name":"Douglas, Cronin and Deckow","location":{"state":"Florida","city":"Fort Lauderdale","lat":"26.1625","lon":"-80.2582"},"date_updated":"2018-10-13T02:00:15Z"},
{"id":93,"name":"Hoeger-Ankunding","location":{"state":"Texas","city":"Wichita Falls","lat":"33.9995","lon":"-98.3938"},"date_updated":"2018-12-04T20:23:42Z"},
{"id":94,"name":"Lind, Bode and Abernathy","location":{"state":"Texas","city":"El Paso","lat":"31.6948","lon":"-106.3"},"date_updated":"2018-04-12T08:04:26Z"},
{"id":95,"name":"Bode-Willms","location":{"state":"North Carolina","city":"Charlotte","lat":"35.26","lon":"-80.8042"},"date_updated":"2018-12-12T16:24:30Z"},
{"id":96,"name":"Gibson Group","location":{"state":"Ohio","city":"Columbus","lat":"39.9523","lon":"-83.078"},"date_updated":"2018-05-18T14:04:37Z"},
{"id":97,"name":"Abernathy-Hackett","location":{"state":"Texas","city":"Austin","lat":"30.3264","lon":"-97.7713"},"date_updated":"2018-04-12T16:27:46Z"},
{"id":98,"name":"Hauck, Graham and Toy","location":{"state":"Colorado","city":"Littleton","lat":"39.592","lon":"-105.1328"},"date_updated":"2018-10-29T21:09:53Z"},
{"id":99,"name":"Volkman, Hirthe and Prosacco","location":{"state":"North Carolina","city":"Charlotte","lat":"35.26","lon":"-80.8042"},"date_updated":"2018-09-24T07:29:58Z"},
{"id":100,"name":"Mante, Heller and Kshlerin","location":{"state":"Utah","city":"Salt Lake City","lat":"40.6681","lon":"-111.9083"},"date_updated":"2019-03-09T02:01:37Z"}]